"Long","Lat","SiteNum","Name","State","First","Last","PercComp","Elev","Dist","Years","loc","scale","shape","distToGdr","inlandGdr"
150.05,-26.36,"035029","GILIGULGUL","QLD",1925,2016,0.99,318,283.2,91.08,57.5442865606792,22.4406571269952,0.0851381290869321,142.004142593624,TRUE
150.17,-26.07,"035050","LYNWAY","QLD",1909,1988,0.93,272,255.98,74.4,59.0245635627756,20.596180315494,0.100587583956713,130.35798968059,TRUE
153.1,-27.95,"040000","ABBOTSFORD","QLD",1909,1974,0.98,48,31.09,64.68,76.1492536891661,35.0405724509074,-0.0565749145209591,70.2153540102859,FALSE
152.62,-26.37,"040003","AMAMOOR FORESTRY","QLD",1921,2004,0.95,107,45.71,79.8,87.408663419707,32.7446293296104,0.215332565594252,112.182649070125,FALSE
152.71,-27.63,"040004","AMBERLEY AMO","QLD",1941,2016,0.98,24,50.3,74.48,69.9533599068129,28.4840593586163,0.0146430040669004,49.506987023494,FALSE
152.9,-26.8,"040007","BALD KNOB","QLD",1927,1983,0.98,488,23.7,55.86,137.204725654579,48.8569713244653,0.286391728994853,99.993793695935,FALSE
152.08,-26.32,"040010","BARAMBAH","QLD",1896,1953,0.87,335,98.58,50.46,59.6338169841546,19.9672817142096,0.045587729654967,60.5136261477819,FALSE
153.01,-28.02,"040014","BEAUDESERT CRYNA","QLD",1887,2014,0.93,106,41.32,119.04,67.4259036213116,23.0940947628437,0.282098985358347,60.2560717585183,FALSE
153.19,-28.15,"040015","BEECHMONT BINNA BURRA ROAD","QLD",1919,2003,0.96,520,28.41,81.6,103.758275087503,51.2511646649058,-0.0293026219448317,74.144818820162,FALSE
153.18,-27.72,"040016","BEENLEIGH POST OFFICE","QLD",1871,1967,0.91,12,16.86,88.27,94.6954031523617,39.367299428858,0.131522796818241,84.8527624818089,FALSE
152.98,-26.86,"040017","BEERWAH FOREST","QLD",1930,2004,0.96,30,15.24,72,116.284832861463,49.0656686653619,0.164000558886317,101.958139170276,FALSE
152.15,-26.9,"040019","BENARKIN FOREST STATION","QLD",1925,1988,0.95,442,96.1,60.8,66.4861198412041,22.9405673029545,-0.035631168673803,40.3400878230686,FALSE
152.1,-26.89,"040020","BLACKBUTT POST OFFICE","QLD",1900,2016,0.84,445,101.1,98.28,63.6662417194904,20.891484523988,0.130926822144794,39.5306419494843,FALSE
152.69,-27.99,"040024","BOONAH STARK AVE","QLD",1898,2011,0.92,96,71.38,104.88,70.4563132960583,22.3212494668295,0.0895335489649809,30.069945028329,FALSE
152.05,-26.08,"040025","BOONARA","QLD",1886,1981,0.84,274,97.61,80.64,57.5591903139823,19.5357582645639,0.391959202342451,57.6244725139651,FALSE
152.43,-26.19,"040029","WIDGEE STATION HILL","QLD",1936,2005,0.84,127,63.08,58.8,77.5898035463152,25.5063905050669,0.194843071436486,95.5367794199572,FALSE
153.05,-26.69,"040031","BUDERIM POST OFFICE","QLD",1892,1995,0.86,168,7.82,89.44,131.950158924894,50.590927522629,-0.131005441149651,119.27245834713,FALSE
153.01,-27.14,"040035","BURPENGARY ULMANN RD","QLD",1898,2000,0.8,20,8.84,82.4,90.9288306066591,35.360996764756,0.151679574393153,90.0685200087223,FALSE
152.5,-27.15,"040037","CABOONBAH","QLD",1894,1985,0.67,52,55.88,61.64,66.7491087374004,21.7807231805221,-0.0335823357846862,44.5127414695744,FALSE
152.95,-27.09,"040038","CABOOLTURE POST OFFICE","QLD",1870,1999,0.86,4,16.79,111.8,90.0257471013532,39.8210283968259,0.236607692463415,86.5332601914538,FALSE
153.15,-26.8,"040040","CALOUNDRA SIGNAL STATION","QLD",1899,1992,0.69,46,0.9,64.86,99.9238079930028,39.811181333329,0.115767306337443,119.616362170762,FALSE
153.17,-28.01,"040042","CANUNGRA FINCH ROAD","QLD",1915,2016,0.96,100,25.76,97.92,90.5912730494936,42.6111669814312,0.263671803249812,76.0111402478353,FALSE
153.08,-28.25,"040044","DARLINGTON","QLD",1917,1974,0.98,238,41.13,56.84,76.3485001003128,33.1733682296897,0.322263248510714,62.5551034332812,FALSE
152.9,-26.25,"040045","CENTRAL KIN KIN","QLD",1909,1964,0.98,82,16.48,54.88,108.7402665788,46.2546232132115,0.0969398926666553,142.325547950073,FALSE
152.72,-26.73,"040051","CONONDALE TOWNSHIP","QLD",1933,2016,0.79,140,39.14,66.36,77.789128708345,29.7518340155421,0.358798812782472,91.9933514144984,FALSE
152.9,-26.55,"040053","COOLOOLABIN FORESTRY","QLD",1928,1976,0.97,159,17.68,47.53,122.513615097122,51.3289376002605,0.0740853831598985,118.626210243834,FALSE
152.9,-26.55,"040054","ROCKY VALE","QLD",1915,1972,0.97,150,17.68,56.26,120.157277844295,49.9326146685614,0.102199014098006,118.626210243834,FALSE
152.5,-27.39,"040056","COOMINYA POST OFFICE","QLD",1916,2015,0.96,81,57.87,96,62.1649348370202,19.187856601616,0.209131921322721,34.8650784684562,FALSE
152.91,-26.18,"040057","COMO","QLD",1937,2012,0.97,108,15.61,73.72,110.610246790544,53.8324810851639,0.0577067211721499,143.486438367512,FALSE
152.82,-26.33,"040058","COORAN POST OFFICE","QLD",1892,1990,0.97,77,27.15,96.03,86.5344311432022,38.9947252436467,0.15384027791892,130.372943630977,FALSE
152.91,-26.42,"040059","COOROY COMPOSITE","QLD",1893,2012,0.97,110,16.58,116.4,108.881969693403,49.431993817234,0.081262804215364,129.077504014328,FALSE
151.83,-26.98,"040060","COOYAR POST OFFICE","QLD",1895,2015,0.88,436,124.53,106.48,55.8965157542611,19.2065971613127,0.092200020271421,12.9862871977953,FALSE
152.87,-26.81,"040062","CROHAMHURST","QLD",1892,2004,0.91,200,26.57,102.83,118.677268198283,52.3576368717646,0.137382408763877,97.0393231204167,FALSE
152.82,-27.2,"040063","DAYBORO POST OFFICE","QLD",1931,2012,0.96,68,23.85,78.72,89.7450382119351,37.9463544635491,0.239142492464672,70.1037536952783,FALSE
153.03,-26.65,"040065","DIDDILLIBAH","QLD",1914,1966,0.88,6,7.05,46.64,108.916735951613,42.4889803397171,0.124887122764197,120.829064084901,FALSE
152.83,-27.6,"040066","DINMORE POST OFFICE","QLD",1894,1979,0.83,76,39.22,71.38,80.0856469690042,29.5995569002297,0.0430833962087477,60.6042815053778,FALSE
151.19,-26.38,"040071","LANARK","QLD",1940,2016,0.93,365,186.84,71.61,56.1880620343582,14.9221439030392,0.240949266788305,28.2979870510274,TRUE
153.35,-27.97,"040074","ERNEST JUNCTION RAIL STN","QLD",1899,1961,0.9,22,7.54,56.7,119.114965625651,41.7877158551691,0.182069439239177,94.1010745019314,FALSE
152.42,-27.24,"040075","ESK POST OFFICE","QLD",1886,2016,0.98,119,63.45,128.38,67.5913776575766,24.5453388523306,0.0906458851687356,32.212048442079,FALSE
152.17,-27.15,"040076","ESK DALE WEST","QLD",1933,1989,0.95,501,88.43,54.15,65.947754727893,25.4095085655628,-0.137516535843148,20.8532252048094,FALSE
152.95,-26.48,"040078","EUMUNDI - CRESCENT RD","QLD",1898,2016,0.91,93,11.05,108.29,115.923914449065,44.7977367219557,0.16808247023714,127.470769197189,FALSE
152.38,-27.58,"040079","FOREST HILL","QLD",1894,2016,0.97,112,74.98,119.31,62.1462880125713,21.4441616248289,0.0502732547016772,30.6078663831792,FALSE
153.02,-28.26,"040080","GLEN CAIRN","QLD",1923,2004,0.81,200,47.08,66.42,71.0778000057709,28.7217388224326,0.207950478390989,56.6891098096757,FALSE
152.34,-27.54,"040082","UNIVERSITY OF QUEENSLAND GATTON","QLD",1897,2016,0.99,89,77.12,118.8,62.3769861866079,19.4780472698389,0.18515082698734,24.7141972183851,FALSE
152.28,-27.54,"040083","GATTON ALLAN STREET","QLD",1894,2016,0.98,114,82.76,120.54,63.0659398020333,21.058547091823,0.130546426920452,20.5038561203588,FALSE
151.82,-26.67,"040086","GOODGER STORE","QLD",1923,2005,0.93,473,125.28,77.19,62.9349999828561,18.962009886838,-0.0181165488766465,32.0586721289457,FALSE
152.05,-26.95,"040087","GOOGA GOOGA CRK FOREST","QLD",1927,1987,0.97,435,104.14,59.17,62.7256914074608,23.8688926581952,0.0988986050097191,31.5430996639009,FALSE
152.79,-26.06,"040089","GOOMBOORIAN","QLD",1913,2016,0.98,94,32.2,101.92,82.5173888709699,33.7681519677558,0.288484764721177,131.638073413934,FALSE
152.07,-26.18,"040090","GOOMERI POST OFFICE","QLD",1912,2011,0.94,258,99.05,94,58.66231764253,19.0837313170088,0.0878472210690878,59.5715728006186,FALSE
152.47,-27.66,"040091","GRANDCHESTER SYMES ST","QLD",1894,2014,0.91,95,71.16,110.11,68.4305703068738,25.9326234264209,0.222204164884716,31.39011953342,FALSE
152.64,-26.18,"040093","GYMPIE","QLD",1870,2016,0.89,65,42.23,130.83,75.8379816734678,29.3286228851291,0.173981707792445,116.513924459399,FALSE
152.67,-27.81,"040094","HARRISVILLE MARY STREET","QLD",1896,2016,0.99,58,66.72,119.79,63.6214829566787,18.7995510152976,0.158129291702148,34.3962932306186,FALSE
152.47,-27.57,"040095","HATTONVALE OSHEA RD","QLD",1908,2014,0.89,118,66.39,95.23,63.9980470020503,21.1385775154582,0.0471302639005869,37.1547449644046,FALSE
152.12,-27.55,"040096","HELIDON POST OFFICE","QLD",1870,2016,0.85,155,98.25,124.95,64.3237530477743,23.0322687354466,0.0622595681852297,15.5756693339795,FALSE
153.01,-28.22,"040097","CHRISTMAS CREEK","QLD",1912,1993,0.91,110,46.95,74.62,65.4093222809361,21.0521669114333,0.200050578051487,55.7706053419433,FALSE
152.68,-26.46,"040099","IMBIL POST OFFICE","QLD",1916,2016,0.97,96,38.04,97.97,78.9608210315063,32.2000614022312,0.265972511791038,110.330967790452,FALSE
152.66,-26.46,"040100","IMBIL FORESTRY","QLD",1917,2011,0.93,127,40.02,88.35,69.3520948890205,29.1174889358695,0.309386690744881,109.08821468698,FALSE
152.76,-27.61,"040101","IPSWICH","QLD",1870,1994,0.88,40,45.22,110,68.7096854915178,22.8268779597312,0.152498195452837,54.6821384285247,FALSE
152.46,-26.66,"040102","JIMNA COMPOSITE","QLD",1927,2008,0.98,513,62.99,80.36,64.056911380951,25.6260097323806,0.303289045169466,79.29851385004,FALSE
152.62,-27.95,"040104","ENGLESBERG VILLAGE","QLD",1887,2016,0.96,101,77.58,124.8,67.6265718721117,21.1481928818239,0.0929961142556198,25.7885822598495,FALSE
152.68,-26.39,"040105","KANDANGA POST OFFICE","QLD",1917,2012,0.94,81,39.34,90.24,78.6586627713126,32.7961991304555,0.244693238837002,116.003025457305,FALSE
152.73,-26.6,"040106","KENILWORTH TOWNSHIP","QLD",1903,2016,0.99,107,35.43,112.86,88.2152381460676,37.5876171464976,0.150026189318155,102.262399763167,FALSE
153.04,-28.05,"040107","BRUFF HILL","QLD",1917,1998,0.98,31,39.27,80.36,70.7064499931272,26.8424761503082,0.198452198234792,62.6011964657625,FALSE
152.75,-27.55,"040108","KHOLO","QLD",1940,2005,0.91,30,41.49,60.06,71.0437179620033,26.6762071493645,0.0881069651535468,58.3778611150672,FALSE
152.01,-26.52,"040109","KIA ORA SANDY RIDGES","QLD",1908,2010,0.89,340,104.77,91.67,58.6176844742018,17.7281295831417,-0.0436420338820823,53.4251346807258,FALSE
152.56,-26.94,"040110","KILCOY POST OFFICE","QLD",1890,2015,0.96,129,55.41,120.96,65.4014476109139,25.8084280269535,0.140112786499419,64.4381708753628,FALSE
152.24,-26.09,"040111","KILKIVAN POST OFFICE","QLD",1879,2016,0.93,159,80.46,128.34,66.6259519278282,23.6168679353002,0.174207607042902,76.6227176561834,FALSE
151.85,-26.55,"040112","KINGAROY PRINCE STREET","QLD",1905,2001,0.99,442,120.84,96.03,60.3792679281318,19.2816300953448,0.0403876238240986,37.4909009790277,FALSE
151.66,-26.69,"040113","KUMBIA POST OFFICE","QLD",1916,2016,0.93,542,141.34,93.93,57.9687133168864,18.7545617118565,0.0887772241035961,16.4652825959692,FALSE
152.39,-27.63,"040114","LAIDLEY POST OFFICE","QLD",1889,1995,0.98,34,76.4,104.86,59.6550607360711,20.261710249146,0.0944657458964651,31.666191740548,FALSE
152.75,-27.49,"040115","LAKE MANCHESTER","QLD",1917,2015,0.97,43,37.73,96.03,66.6016001083188,24.3213131570827,0.206103603681473,60.4036069862433,FALSE
152.96,-26.8,"040117","LANDSBOROUGH POST OFFICE","QLD",1892,2010,0.95,43,17.79,113.05,121.917257127762,51.2034005964444,-0.0109186064554692,104.503800804557,FALSE
152.68,-26.62,"040118","LITTLE YABBA SFR 274","QLD",1940,2016,0.91,122,40.88,70.07,82.3217709335626,37.6860304314914,0.204803811542296,97.1321550785136,FALSE
152.57,-27.46,"040120","LOWOOD DON ST","QLD",1887,2016,0.96,51,52.77,124.8,59.7282079825026,20.7300885613274,0.145839604891925,42.3191221640207,FALSE
152.85,-26.75,"040121","MALENY TAMARIND ST","QLD",1915,2016,0.95,425,27.87,96.9,123.844849317332,55.0990667430172,0.190956923572883,100.115017434607,FALSE
152.33,-26.43,"040122","GALLANGOWAN FORESTRY","QLD",1934,2008,0.94,449,73.07,70.5,58.2820882202537,22.633854924328,0.242428218918644,85.1548434741153,FALSE
152.87,-26.62,"040123","MAPLETON POST OFFICE","QLD",1903,2016,0.97,374,22.84,110.58,116.601535368385,54.0023469464503,0.15494516876272,111.215707838061,FALSE
152.61,-27.57,"040124","MARBURG - WARREGO HIGHWAY","QLD",1887,2003,0.92,90,54.16,107.64,64.2176082022385,22.6600054838585,0.0793680863236989,47.3897591730796,FALSE
153.08,-26.65,"040125","MAROOCHYDORE SWAN BOWLS CLUB","QLD",1929,1987,0.93,1,2.51,54.87,124.500291878007,44.8732800729531,-0.159371179227313,124.46755110463,FALSE
151.89,-26.17,"040130","SPRINGLEA","QLD",1938,2004,0.82,457,116.1,54.94,50.6384731869496,13.3655010635185,0.115083057577581,41.6066362596333,FALSE
152.4,-26.7,"040133","MONSILDALE","QLD",1913,1977,0.99,243,69.9,64.35,60.2419631459961,21.1223535457462,0.0478834568499937,72.1841828791034,FALSE
152.9,-26.7,"040134","MONTVILLE \CRAGLANDS\","QLD",1910,2016,0.98,400,21.06,104.86,129.05132582157,54.9688040153878,0.161756606980018,107.487788299592,FALSE
152.55,-28.03,"040135","MOOGERAH DAM","QLD",1917,2016,0.92,183,85.74,92,70.2104714363107,23.5038601013245,0.22699442000919,15.6104021403712,FALSE
152.96,-26.77,"040136","MOOLOOLAH POST OFFICE","QLD",1888,2001,0.65,50,18.62,74.1,124.620449521779,47.8656792666807,0.170060604572861,106.671348223934,FALSE
152.29,-26.9,"040137","MOORE POST OFFICE","QLD",1912,1986,0.97,166,82.21,72.75,66.4789627607231,24.052057389934,0.188341470732716,47.8598677736555,FALSE
151.51,-26.51,"040138","MOUNEFONTEIN","QLD",1907,2016,0.66,418,154.53,72.6,58.4660494828144,19.5699500380514,0.1131409443138,3.65247035780765,FALSE
152.61,-28.07,"040139","MT ALFORD","QLD",1911,2016,0.71,143,80.98,75.26,71.4560539654315,24.6484400769331,0.184544422070085,20.6385299049513,FALSE
152.58,-27.15,"040140","MT BRISBANE","QLD",1890,2016,0.85,100,48.01,107.95,65.7775093796431,23.0325090955794,0.128399907012627,50.9547566159762,FALSE
153.2,-27.62,"040141","MOUNT COTTON WEST","QLD",1915,2016,0.98,148,12.64,99.96,103.859093423364,42.3211733088307,0.103886293860856,90.6680173364637,FALSE
152.8,-27.54,"040142","MT CROSBY","QLD",1894,2011,0.85,20,36.98,100.3,76.2222366223842,28.0310526672494,0.140047938775896,62.7989271369991,FALSE
153.08,-27.54,"040143","MOUNT GRAVATT","QLD",1904,1953,0.97,48,19.06,48.5,86.1353696586936,29.5973217970456,0.136851138911903,84.4732639869298,FALSE
152.78,-27.06,"040145","MT MEE","QLD",1909,2016,0.91,465,32.18,98.28,102.937375269595,42.642997126071,0.190575770660515,73.0719949613256,FALSE
152.28,-26.22,"040146","SHAMROCK MINE","QLD",1926,2009,0.76,518,77.98,63.84,70.1619837258481,27.4253566435471,0.129493887627494,80.5289931385365,FALSE
152.79,-27.4,"040147","MT NEBO POST OFFICE","QLD",1947,2015,0.94,449,30.03,64.86,99.6133118303332,47.0365462702169,0.156490842478,63.5127188885501,FALSE
152.17,-26.6,"040148","MT STANLEY FORESTRY","QLD",1895,1977,0.58,234,89.67,48.14,59.316636116035,24.2006258389731,-0.0221914844047924,60.8182352870434,FALSE
153.09,-27.91,"040150","MUNDOOLIN","QLD",1881,1997,0.94,61,31.11,109.98,77.7455714546918,26.7057465222043,0.300863168312756,70.3040350694995,FALSE
151.94,-26.24,"040152","MURGON POST OFFICE","QLD",1909,2014,0.96,314,111.95,101.76,58.4432842885179,18.0779332880909,0.116753414275376,46.5719010986222,FALSE
152.07,-27.47,"040153","MURPHYS CREEK POST OFFICE","QLD",1895,1985,0.91,228,101.21,82.81,61.9891358728264,18.0774727447314,0.103220757980708,5.66306219749537,FALSE
152.5,-27.2,"040154","FAIRVIEW","QLD",1926,1974,0.99,50,55.53,48.51,65.5349485744526,22.9820357565773,0.123395856600522,41.2809544935465,FALSE
152.96,-28.17,"040156","TOOLAMBA","QLD",1913,2011,0.78,163,51.08,77.22,68.3145407444403,22.7464007330691,0.155749560979851,51.5001920211935,FALSE
152.97,-26.62,"040157","NAMBOUR BOWLING CLUB","QLD",1893,2015,0.95,19,12.93,116.85,115.653145194735,47.992985099689,0.128087273365384,118.557126002488,FALSE
151.99,-26.68,"040158","NANANGO WILLS ST","QLD",1882,2016,0.98,375,108.84,132.3,57.0851675224819,18.0143977595273,0.134533748419932,41.3677901473104,FALSE
152.97,-27.2,"040159","NARANGBA RAILWAY STN","QLD",1920,1987,0.96,45,9.01,65.28,93.2596832319499,39.8585434630687,0.132828021458665,84.3165522302824,FALSE
153.32,-28.01,"040160","NERANG GILSTON RD","QLD",1887,2016,0.95,25,12.26,123.5,113.126645172057,48.4554830449919,0.143131879190435,90.0922053471042,FALSE
152.65,-26.1,"040161","GYMPIE","QLD",1924,1978,0.98,60,43.06,53.9,87.3249554032163,37.6168855431237,0.135417453631632,117.592488716966,FALSE
153.21,-28.16,"040162","NUMINBAH STATE FARM","QLD",1941,2016,0.96,162,26.54,72.96,109.523791468715,53.076806043941,0.228597012912528,75.9356496650468,FALSE
152.93,-28.2,"040163","INNIS PLAIN","QLD",1925,1972,1,130,54.34,48,67.5990113222531,25.0838296475829,-0.040554587177947,48.1256198911646,FALSE
152.33,-26.12,"040164","KILKIVAN STATE FOREST 220","QLD",1921,1976,0.95,100,73.81,53.2,78.2692700956083,27.4366700507211,0.152046854738229,85.5915871762469,FALSE
153.31,-27.9,"040166","OXENFORD (OBERON WAY)","QLD",1894,2015,0.9,6,9.72,109.8,100.520114373376,42.4524993802704,0.186452815032353,91.5797220371807,FALSE
152.77,-28.33,"040167","PALEN CREEK CORRECTIONAL","QLD",1936,2016,0.88,250,72.79,71.28,77.61081220027,24.8083967236428,0.102789285566543,31.3863871889166,FALSE
152.95,-26.7,"040168","PALMWOODS POST OFFICE","QLD",1892,1980,0.95,42,16.48,84.55,118.384322989411,52.7185112485007,0.00218596315221679,111.24204601222,FALSE
152.88,-26.84,"040169","PEACHESTER","QLD",1915,2016,0.96,175,25.25,97.92,110.636722631017,46.2547333695396,0.153240238451004,95.5607670475325,FALSE
152.05,-27.3,"040170","PECHEY FORESTRY","QLD",1927,2016,0.95,667,100.38,85.5,63.8608950518797,23.3715683086686,-0.0260807084106007,1.47647289205621,FALSE
152.98,-27.27,"040171","AMCOR - PETRIE MILL","QLD",1886,2013,0.97,15,9.48,124.16,89.2484012520242,38.0494383375588,0.101295794887122,83.5683294835937,FALSE
152.58,-26.87,"040174","PLAIN VIEW","QLD",1924,1971,0.98,128,53.69,47.04,79.754610701049,38.4127026970256,0.0941251148912503,71.1457210140035,FALSE
152.85,-26.37,"040176","POMONA POST OFFICE","QLD",1919,2003,0.98,73,24.49,83.3,96.4297540596352,44.369408617808,0.172999556962539,128.959399731711,FALSE
151.6,-26.16,"040177","PROSTON POST OFFICE","QLD",1937,2016,0.93,368,142.14,74.4,53.9391795106187,17.6058448094413,0.0305344699205002,12.6369682709607,FALSE
152.87,-28.21,"040178","RATHDOWNEY POST OFFICE","QLD",1912,2016,0.99,101,60.32,103.95,64.5911296437708,22.008100084179,0.220533511637943,42.156566683389,FALSE
152.87,-27.6,"040179","REDBANK POST OFFICE","QLD",1888,1978,0.9,20,36.25,81.9,75.4303399188854,28.5457977557784,-0.118489305635463,63.677252615132,FALSE
152.68,-27.92,"040181","ROADVALE POST OFFICE","QLD",1907,1983,0.93,134,70.81,71.61,70.2967941300077,19.417172743298,0.157743832451348,31.8444763427029,FALSE
153.14,-28.23,"040182","GREEN MOUNTAINS","QLD",1916,2016,0.85,916,34.85,85.85,101.883731161385,47.6498440359727,0.257855037248914,68.4659431628037,FALSE
152.48,-27.85,"040183","ROSEVALE","QLD",1909,2016,0.93,101,83.53,100.44,69.8521579863284,23.3571213530439,0.0324709560600295,16.3136824740432,FALSE
152.59,-27.63,"040184","ROSEWOOD WALLOON RD","QLD",1894,2016,0.98,63,59.47,120.54,65.3829342280062,22.790906346718,0.15783885454216,40.9735883480915,FALSE
152.82,-27.29,"040186","SAMSONVALE","QLD",1919,2016,0.97,98,24.93,95.06,87.6419117526515,38.53373710841,0.134814597728982,67.5943310901627,FALSE
152.62,-26.88,"040187","FREEWOOD","QLD",1928,1986,0.87,125,49.63,51.33,80.3713427487393,35.2032439888818,0.284068841528315,73.3114466808524,FALSE
152.63,-27.27,"040188","SIM JUE CREEK","QLD",1937,2015,0.98,155,42.94,77.42,79.4745074262759,36.6242084656973,0.0553495729353211,49.818692630594,FALSE
152.56,-27.11,"040189","SOMERSET DAM","QLD",1936,2016,0.98,113,50.73,79.38,72.5847715636203,26.7851071033232,0.297782298206857,51.9372170591702,FALSE
153.41,-27.98,"040190","SOUTHPORT RIDGEWAY AVE","QLD",1881,2016,0.95,17,3.88,129.2,110.21750044676,47.6650018273853,0.0676480915675767,99.5318953203071,FALSE
153.28,-28.23,"040192","SPRINGBROOK FORESTRY","QLD",1914,2004,0.95,806,22.11,86.45,195.015578393001,90.043116698268,0.105394873239001,81.9807050250162,FALSE
152.63,-26.48,"040193","STERLING CROSSING FOREST","QLD",1923,1976,0.98,91,42.93,52.92,80.2785969618553,35.2241884524113,0.137124104047374,105.494772869049,FALSE
153.43,-28.14,"040196","TALLEBUDGERA GUINEAS CREEK ROAD","QLD",1899,2016,0.97,13,4.83,114.46,118.542707291326,50.6909707921675,0.126701788977499,97.6372536189368,FALSE
153.2,-27.97,"040197","MT TAMBORINE FERN ST","QLD",1888,2016,0.88,515,21.99,113.52,117.198619805361,53.8742674914023,0.192290806748,79.4994935480581,FALSE
152.5,-27.98,"040198","TAROME","QLD",1911,2016,0.97,137,89.67,102.82,73.7676177730942,26.4049406610312,0.203330874159449,14.0280625435818,FALSE
151.84,-26.74,"040199","TARONG","QLD",1920,2016,0.98,401,124.83,95.06,61.3514707604082,19.7094482012842,0.065943335211912,26.4055414649139,FALSE
152.38,-27.82,"040202","THORNTON BVRT","QLD",1915,1983,0.85,188,88.74,58.65,73.311819009712,25.8796450808594,0.239358624874926,11.5435224145635,FALSE
152.38,-27.09,"040205","TOOGOOLAWAH POST OFFICE","QLD",1909,2016,0.98,116,68.65,105.84,63.5087226951303,22.4634723628226,0.101128292093644,40.0425074880142,FALSE
152.79,-26.33,"040206","TRAVESTON","QLD",1932,2016,0.93,81,29.83,79.05,91.1674567208177,43.3397559176451,0.118138390907999,128.481977326561,FALSE
152.73,-27.55,"040208","VIEWMOUNT","QLD",1925,2003,0.88,80,43.06,69.52,72.1058660803025,27.9363475441435,0.040941397142865,56.9493110166508,FALSE
153.01,-27.57,"040211","ARCHERFIELD AIRPORT","QLD",1929,2016,0.94,13,24.93,82.72,87.1485416861964,32.0442339081971,0.0912867402808968,76.862489587949,FALSE
153.07,-27.43,"040212","EAGLE FARM RACECOURSE","QLD",1920,2013,0.99,9,8.9,93.06,86.5685964292139,34.2649677839161,0.180049735550261,90.9222834831779,FALSE
153.01,-27.32,"040213","BALD HILLS POST OFFICE","QLD",1895,1993,0.98,15,6.91,97.02,89.2569720424781,38.8779664767254,0.0242090385831756,85.7304861011521,FALSE
153.03,-27.48,"040214","BRISBANE REGIONAL OFFICE","QLD",1840,1994,0.86,38,15.64,133.3,88.9415003404497,33.4131063193853,0.0924585988528793,84.347747831587,FALSE
153.03,-27.48,"040215","BRISBANE BOTANICAL GARDENS","QLD",1890,1984,0.84,15,15.64,79.8,83.6196572278598,29.3975527946662,0.244934930798138,84.347747831587,FALSE
153.03,-27.45,"040216","BRISBANE SHOW GROUNDS","QLD",1889,2008,0.68,16,13.37,81.6,83.9283768988938,35.7345872710878,0.166168594846549,86.462252612506,FALSE
153.08,-27.5,"040218","CARINA HILL CRESCENT","QLD",1921,1975,1,12,14.86,55,89.377871074704,31.6975863583231,0.0828659201158509,86.9656720374203,FALSE
153.06,-27.49,"040220","COORPAROO BOWLS CLUB","QLD",1898,2003,0.88,6,14.75,93.28,82.9816326465459,29.0140138010414,0.126185988772797,86.020025813893,FALSE
153.02,-27.5,"040221","DUTTON PARK","QLD",1890,1956,0.84,6,17.96,56.28,77.9501031038305,24.7910980940228,-0.0389241732282112,82.1985301926744,FALSE
153.05,-27.41,"040222","KALINGA BOWLS CLUB","QLD",1956,2009,0.93,18,9.37,50.22,86.8931816306473,35.8817329284398,-0.069131681335589,89.2140750418412,FALSE
153.11,-27.42,"040223","BRISBANE AERO","QLD",1929,2000,0.99,4,5.53,71.28,91.7175424510477,36.2798939131119,0.172436036986965,94.6906694345988,FALSE
153,-27.42,"040224","ALDERLEY","QLD",1899,2016,0.92,39,13.7,108.56,85.7800203506877,33.3376760643983,0.139937705968841,84.2940244299965,FALSE
152.93,-27.44,"040225","ENOGGERA RESERVOIR","QLD",1870,1996,0.88,79,19.99,111.76,90.0397411815688,31.6096115701326,0.244979829859523,77.4740064361526,FALSE
152.9,-27.61,"040226","GOODNA AMPOL","QLD",1870,1998,0.84,20,34.97,108.36,74.2400197732292,26.8053473997804,0.139630372125431,65.3914638585478,FALSE
152.92,-27.6,"040227","WOLSTON PARK HOSPITAL","QLD",1893,1973,0.97,37,32.83,78.57,80.3811146335887,25.6776743126009,-0.0219617090388063,67.6449462005938,FALSE
152.98,-27.5,"040229","INDOOROOPILLY BOWLS CLUB","QLD",1887,2004,0.91,17,20.72,107.38,87.0790120900239,30.5981250573822,0.097034448869388,79.1063690328918,FALSE
152.88,-27.46,"040230","GOLD CREEK RESERVOIR","QLD",1887,1994,0.96,99,25.2,103.68,89.0088210167832,34.5506274744035,0.227021669786121,72.7126763278761,FALSE
153.18,-27.46,"040231","MANLY RAILWAY STATION","QLD",1898,2015,0.96,25,10.23,113.28,90.8089469449971,37.5042042157806,0.0686348303368426,97.6213584318951,FALSE
153.03,-27.45,"040232","MAYNE JUNCTION","QLD",1898,1964,0.97,5,13.37,64.99,86.9478163256139,31.1214884286659,0.0759651672791428,86.462252612506,FALSE
153,-27.47,"040233","MILTON","QLD",1898,1952,0.84,24,17.07,46.2,81.3101511845586,30.6228472940107,0.0135478047677018,82.7618747004748,FALSE
153.1,-27.5,"040234","MORNINGSIDE","QLD",1898,1954,0.91,18,14.23,51.87,85.544166313345,25.2365303963793,0.14468966402506,88.5854030600429,FALSE
153.1,-27.47,"040235","MURARRIE ROAD CSIRO","QLD",1898,1997,0.96,50,11.04,96,84.7976223819686,31.2223653139785,0.0780921548766975,90.5204149776007,FALSE
153.06,-27.39,"040237","TOOMBUL BOWLS CLUB","QLD",1895,2015,0.98,22,7.75,118.58,89.8510431357819,34.0041699320909,0.140490347149736,90.2057413454278,FALSE
152.98,-27.55,"040238","OXLEY POST OFFICE","QLD",1898,1971,0.98,19,24.77,72.52,75.3367346255805,24.9258417253677,0.195624180595001,75.6999993287975,FALSE
153.12,-27.43,"040239","PINKENBA","QLD",1898,1950,0.96,5,6.19,50.88,87.2816816394564,27.9291286505499,0.196371304317133,94.7788870941164,FALSE
153.04,-27.55,"040240","SALISBURY BOWLS CLUB","QLD",1899,2001,0.93,9,21.56,95.79,82.2995719804019,27.337396775445,0.204663934035156,80.5603230163723,FALSE
152.89,-27.36,"040241","SAMFORD CSIRO","QLD",1912,2003,0.82,53,19.31,75.44,80.0220300546923,34.4040118738543,0.135298777816767,73.5326048149237,FALSE
153.07,-27.32,"040242","SANDGATE POST OFFICE","QLD",1879,2000,0.91,1,0.98,111.02,90.3856591750136,36.6138754133012,0.110635852484711,91.6337481946091,FALSE
152.98,-27.52,"040243","GRACEVILLE BOWLS CLUB","QLD",1898,1987,0.97,25,22.26,87.3,81.3002442088854,26.5850939591413,0.124637978367034,77.7139082975416,FALSE
153.06,-27.58,"040244","SUNNYBANK BOWLS CLUB","QLD",1888,2016,0.89,60,23.31,114.81,84.5744805535863,30.829510856125,0.117132343637376,80.4469632571169,FALSE
152.99,-27.49,"040245","TOOWONG BOWLS CLUB","QLD",1898,2014,0.92,10,19.25,107.64,78.4404199676095,34.7034739787964,0.0939567613565295,80.5761225518747,FALSE
151.42,-26.55,"040246","WARRAGAI","QLD",1924,2015,0.99,444,163.61,91.08,58.1217110732455,19.497180939785,0.129988079878404,5.45508322008743,TRUE
152.58,-26.84,"040247","LINDFIELD","QLD",1923,2016,0.99,146,54.15,93.06,69.5570787232759,27.7166705355079,0.29271417232274,73.5075627880098,FALSE
151.88,-26.32,"040251","WONDAI POST OFFICE","QLD",1908,2016,0.96,334,118.43,104.64,59.1608331847757,18.6237950942109,0.0146232276129922,40.5632696678859,FALSE
152.78,-26.96,"040252","WOODFORD POST OFFICE","QLD",1887,1991,0.98,120,33.82,102.9,87.2528600227523,36.9494936192774,0.233923993403545,79.4065470067588,FALSE
152.39,-26.06,"040254","WOOLOOGA POST OFFICE","QLD",1912,1985,0.99,62,65.56,73.26,70.7983190037449,27.7364095765134,0.150099357038423,91.6416313391566,FALSE
151.82,-26.41,"040255","WOOROOLIN POST OFFICE","QLD",1910,2015,0.92,473,123.94,97.52,57.7369489766886,17.1052016330782,0.128759681406012,34.5284355166028,FALSE
153.17,-27.45,"040256","WYNNUM RAILWAY STATION","QLD",1898,1985,0.95,12,8.82,83.6,93.3198268065324,39.5700904832689,0.0351578619549826,97.4384299052462,FALSE
152.96,-26.56,"040257","YANDINA POST OFFICE","QLD",1892,2007,0.95,10,13.21,110.2,105.925412505381,48.1456301312413,0.264004769751172,122.304528130776,FALSE
151.98,-26.84,"040258","YARRAMAN POST OFFICE","QLD",1913,2016,0.86,458,113.33,89.44,59.5935872299666,19.6375890776602,0.0936605017881321,31.1099039119158,FALSE
151.9,-26.89,"040259","YARRAMAN UPPER","QLD",1915,2016,0.99,594,120.32,100.98,62.2906758995468,22.3960081447186,0.120650732924579,21.9294271321275,FALSE
152.5,-26.78,"040260","YEDNIA","QLD",1916,1965,0.99,485,61.7,49.5,67.1261947342377,33.185982485457,0.286306804852448,71.8811078601344,FALSE
153.04,-27.36,"040263","ZILLMERE POST OFFICE","QLD",1899,1993,0.97,27,6,92.15,88.7154331820042,36.761901445917,0.077170076794358,88.339225924798,FALSE
153.04,-26.39,"040264","TEWANTIN POST OFFICE","QLD",1895,1996,0.99,8,10.55,100.98,105.714123596293,43.7441551489376,0.334489914450704,140.826302274835,FALSE
152.55,-27.98,"040266","ARATULA ELIZABETH ST","QLD",1950,1999,0.99,91,84.78,49.5,73.8042352338893,27.9236221804654,0.140483541487262,18.2237482224298,FALSE
152.16,-27.36,"040270","RAVENSBOURNE","QLD",1933,2006,0.72,608,90.39,53.28,73.1154818790784,27.2826385076072,0.200079265760194,4.44315703854853,FALSE
153.08,-27.56,"040274","MOUNT GRAVATT BOWLS CLUB","QLD",1955,2006,0.93,69,20.92,48.36,89.4102256386627,34.8472965149435,0.0197061668107472,83.2883800832579,FALSE
152.07,-26.66,"040277","NANANGO EAST FOREST 618","QLD",1953,2003,0.96,380,100.6,48.96,63.8810570184024,22.791413535921,-0.0305425749027707,48.8639843687813,FALSE
151.73,-26.67,"040280","TAABINGA","QLD",1919,1995,0.98,466,134.12,75.46,62.6358078253212,19.6351237316839,0.0333142224310247,23.6687478217208,FALSE
152.94,-26.64,"040282","NAMBOUR DPI","QLD",1952,2007,0.93,33,15.82,52.08,106.737006889783,50.6046314105816,0.282524532150514,114.842941063707,FALSE
152.96,-26.96,"040284","BEERBURRUM FOREST STATION","QLD",1898,2016,0.58,48,16.28,69.02,103.159711208685,43.2380977138006,0.201221041814899,94.1090007579304,FALSE
152.72,-28.17,"040290","MAROON","QLD",1910,2016,0.6,148,73.31,64.2,67.7449581885585,22.6171315899269,0.13120000340397,28.535987701029,FALSE
151.96,-27.19,"040301","GLENAVEN","QLD",1937,2016,0.76,612,109.01,60.8,55.6503177074361,17.3116401669156,0.227906197733072,3.43471733365413,FALSE
151.71,-26.97,"040307","VINCENT VALE","QLD",1961,2016,0.99,603,136.42,55.44,58.3282871936739,19.1929093319677,0.215861468241446,2.60881680537469,FALSE
152.77,-27.33,"040308","MT GLORIOUS FAHEY RD","QLD",1933,2015,0.95,618,30.67,78.85,106.970772784143,49.7129790450979,0.251141870439158,62.0231222253595,FALSE
152.31,-27.72,"040310","MT BERRYMAN","QLD",1961,2016,0.98,451,88.12,54.88,61.9263777851619,17.4644416436049,0.297693445878052,20.1480022935489,FALSE
152.14,-27.06,"040311","NUKINENDA","QLD",1901,1995,0.6,351,92.65,57,59.2881898725533,22.1625720990776,0.0684149212006933,24.6509091224009,FALSE
152.94,-27.74,"040312","NEW BEITH","QLD",1961,2016,0.93,69,39.66,52.08,80.0435317445348,33.3743386928766,-0.111529775087546,61.846762676423,FALSE
152.82,-27.72,"040314","RIPLEY VALLEY","QLD",1961,2008,0.98,60,49.41,47.04,64.8261177917251,27.0852184904656,0.0997206687744995,52.1536783748997,FALSE
152.67,-27.75,"040317","RANGE VIEW","QLD",1961,2016,0.99,53,62.07,55.44,64.1745103666666,23.0096554236605,0.0977289678428342,37.8835530060714,FALSE
153.33,-27.73,"040319","ROCKY POINT SUGAR MILL","QLD",1956,2016,0.91,3,9.74,55.51,88.9596243289569,38.1627273426368,0.233195898920133,98.7499574126022,FALSE
153.15,-27.41,"040320","FORT LYTTON","QLD",1964,2014,0.97,11,3.96,49.47,88.2758227470504,36.4485242307916,-0.0278387046196367,98.4858505130887,FALSE
153,-27.9,"040336","VERESDALE","QLD",1880,1933,1,120,39.79,54,61.8998475073984,15.5404872453491,0.468601284374921,62.1584624792051,FALSE
152.87,-27.04,"040343","WAMURAN","QLD",1915,2016,0.6,33,25.78,61.2,89.0713489964256,41.9373922583954,0.185167108891522,81.9031946446327,FALSE
152.39,-26.05,"040365","WOOLOOGA","QLD",1890,2012,0.97,79,65.04,119.31,68.5538377565328,22.3258762881285,0.145093488064707,91.6407443642622,FALSE
152.46,-27.76,"040374","FRANKLYN VALE","QLD",1885,2016,0.96,105,78.42,126.72,68.24617688527,25.2870333080425,0.176914754814015,21.6450731139272,FALSE
151.41,-26.26,"040377","BRIGOODA","QLD",1950,2009,0.99,418,163.95,59.4,51.3518709813527,15.6170549010466,0.082804547850826,6.36501345325188,TRUE
152.06,-27.27,"040382","CROWS NEST","QLD",1893,2011,0.99,585,99.18,117.81,59.8058664413001,21.1609095812592,0.0959340163532264,4.10016128194413,FALSE
152.22,-27.72,"040384","MOUNT SYLVIA","QLD",1953,2003,0.93,175,95.89,47.43,58.740108052215,23.2098018578251,0.103056792939443,18.1888253335203,FALSE
151.67,-26.55,"040385","MINMORE","QLD",1920,2016,0.63,479,138.74,61.11,59.2324082668089,18.7274978670519,0.168192049752233,19.5800838705613,FALSE
152.73,-26.59,"040386","KENILWORTH BRIDGE","QLD",1893,1978,0.88,85,35.04,75.68,74.8297340292038,25.8708153748992,0.964000237552127,103.02995858192,FALSE
152.22,-27.63,"040388","UPPER TENTHILL","QLD",1959,2016,0.98,139,91.69,56.84,59.5524206764174,15.8710059643237,0.0827550685761361,24.8410005330295,FALSE
152.61,-26.4,"040389","KANDANGA UPPER","QLD",1955,2008,0.92,107,45.87,49.68,81.8472981902923,32.9734833172344,0.185994520844592,109.506179605692,FALSE
152.78,-28.23,"040394","MOUNT BARNEY","QLD",1967,2016,0.99,227,69.37,49.5,66.2665585893608,27.3552303677122,0.151690759417737,33.184240462339,FALSE
152.12,-27.72,"040395","FORDSDALE","QLD",1953,2016,0.98,252,104.73,62.72,61.9006931688694,20.3839882448376,0.1137169472821,11.7106514507689,FALSE
152.8,-26.78,"040396","MALENY DENNING RD","QLD",1927,2016,0.96,489,33.82,86.4,121.195031795442,51.2513605530475,0.252147701146927,94.1524073795362,FALSE
152.16,-27.67,"040397","MT WHITESTONE","QLD",1950,2015,0.96,180,98.86,63.36,55.6731144569093,16.42555939153,0.205205700404156,18.0619180712403,FALSE
152.47,-27.91,"040400","MOORANG","QLD",1919,2015,0.89,163,88.62,86.33,72.399152434142,27.1163770303042,0.147338294644695,11.856108178206,FALSE
152.36,-27.4,"040403","BUARABA","QLD",1952,2016,0.94,134,71.73,61.1,66.7581802763469,24.2237294645897,0.131897181160454,21.0156304176461,FALSE
153.03,-28.06,"040407","LUMEAH","QLD",1931,2016,0.7,132,40.54,60.2,69.9777685265007,27.2724964547677,0.155970959936891,61.2950226311448,FALSE
153.04,-28.16,"040413","CENTRAL KERRY","QLD",1967,2015,0.98,152,43.17,48.02,65.4809038713275,28.2587755788051,0.236935059979798,59.4274440398544,FALSE
151.99,-27.46,"040421","SPRING BLUFF RAILWAY STN","QLD",1895,1999,0.98,480,108.85,102.9,66.805244558578,22.336351270166,0.10122362810403,2.41217352910636,FALSE
152.08,-27.76,"040424","WEST HALDON","QLD",1915,2016,0.91,336,110.21,92.82,58.0510354645094,16.5401875469192,0.065361464921349,5.81890065522549,FALSE
152.33,-27.55,"040436","GATTON DAFF RESEARCH STN","QLD",1968,2014,0.98,98,78.41,46.06,59.5971871403748,22.4665171508904,0.149206631916046,24.7085143637947,FALSE
152.46,-27.99,"040447","RHONDA","QLD",1953,2016,0.98,185,93.71,62.72,77.3527644855284,29.1128615459219,0.278100014698227,10.0381486985471,FALSE
152.23,-27.56,"040449","PLACID HILLS","QLD",1970,2016,0.99,125,88.13,46.53,60.4585571643294,19.1718381431254,0.174646797616469,19.7633471522591,FALSE
153.24,-27.61,"040460","MOUNT COTTON FARM","QLD",1966,2016,0.95,56,8.6,48.45,96.5908586649244,40.8412431475639,0.0749487824051043,94.7266321734271,FALSE
152.12,-27.29,"040480","PERSEVERANCE DAM","QLD",1971,2016,0.99,470,93.39,45.54,62.5873873783268,21.103254510966,0.111640690659017,6.20430986391351,FALSE
152.59,-26.5,"040481","BORUMBA DAM","QLD",1960,2015,0.97,151,46.95,54.32,80.1155965527244,32.0330834234628,0.235759911355591,101.313154277627,FALSE
152.52,-28.25,"040485","WILSONS PEAK","QLD",1919,2016,0.66,637,94.79,64.68,84.1937845809026,27.0055814212425,0.175640385809969,7.65308361030496,FALSE
152.44,-26.61,"040486","YABBA STATION","QLD",1912,2015,0.92,507,63.42,95.68,65.2218276016493,23.2983446455245,0.394674267271395,82.701178509297,FALSE
152.53,-27.78,"040493","HOMELEIGH","QLD",1912,2015,0.53,96,74.66,55.12,65.5955273350439,25.5563038091226,0.180391801991897,25.1541028740245,FALSE
152.75,-27.2,"040517","MCKENZIE CREEK","QLD",1953,2016,1,104,30.78,64,86.3693469336781,37.3661397155187,0.242443381601565,63.5689750150256,FALSE
152.54,-28.27,"040523","BOONAH BORDER GATE","QLD",1958,2007,0.97,668,93.31,48.5,77.5874282181195,22.9361607629808,0.260043800185812,9.97086305364099,FALSE
153.29,-28.14,"040524","LITTLE NERANG DAM","QLD",1926,2016,0.97,177,18.56,88.27,122.930768424299,58.6086848409124,0.0936751251173811,84.0181199659024,FALSE
152.9,-26.59,"040525","KIAMBA","QLD",1952,2014,0.91,154,19.97,57.33,102.508483048326,48.4716467193591,0.356784318642853,115.684798058893,FALSE
153.26,-28.16,"040534","WUNBURRA","QLD",1953,2016,0.92,566,21.66,58.88,123.234953717835,55.6914379030273,0.359706879301158,80.8042341016336,FALSE
153.02,-27.79,"040542","MACLEAN BRIDGE","QLD",1959,2016,1,27,34.42,58,78.3779250756876,26.4138331887592,-0.0648380063127687,67.5220799621555,FALSE
153.1,-27.91,"040544","BROMFLEET","QLD",1927,2013,0.71,57,30.13,61.77,62.2517052692661,24.0171176779297,0.475984382967151,71.252778347824,FALSE
152.96,-26.63,"040547","MORETON SUGAR MILL","QLD",1954,2004,0.96,15,13.83,48.96,111.440528210238,54.3057648522905,0.161098767802597,117.07645416186,FALSE
153.24,-28.25,"040550","NUMINBAH","QLD",1928,2016,0.99,355,26.62,88.11,174.74786630492,87.7481636316966,0.064816301592243,77.5641696941603,FALSE
152.61,-27.41,"040552","WIVENHOE POCKET","QLD",1950,2008,0.88,115,47.53,51.92,58.4152683784479,34.6286679566745,5.9547169349187,45.7392010649313,FALSE
152.72,-26.43,"040577","BOLLIER","QLD",1916,1967,0.96,150,34.47,49.92,85.207618966366,31.3157311551123,-0.0771246551893579,115.439039603313,FALSE
153.07,-28.27,"040583","WIDGEE","QLD",1929,2015,0.99,267,42.78,86.13,78.0286858437492,35.6285403033898,0.293178144080859,61.0642824820526,FALSE
152.73,-28.35,"040614","MOUNT LINDSAY","QLD",1919,1972,0.94,419,77.2,50.76,79.0961608261901,27.408657265849,0.401336263435573,26.8845776880966,FALSE
151.93,-26.63,"040616","COOLABUNIA","QLD",1920,1968,0.94,360,113.79,46.06,56.8917071061041,17.6378999163687,0.0390425249281619,41.5736038109622,FALSE
152.49,-26.84,"040635","DANEWOOD VALE","QLD",1963,2016,0.96,172,62.98,51.84,65.7718429373891,23.4937651089634,0.37641107106039,66.6423673210222,FALSE
151.19,-26.28,"040671","KILLARA","QLD",1957,2016,1,348,183.77,60,57.0140650803963,19.0807321255888,0.219809584270801,28.3171351115214,TRUE
152.82,-27.38,"040693","HIGHVALE","QLD",1954,2016,0.8,98,26.56,50.4,84.4592616900573,36.1939918307458,0.300699513970056,66.514618766798,FALSE
152.96,-26.68,"040695","PALMWOODS","QLD",1930,2016,0.98,40,14.7,85.26,123.174851062596,53.6088898306296,0.0404838005437621,113.515636893584,FALSE
152.93,-28.07,"040714","ROUND MOUNTAIN TM","QLD",1957,2016,0.82,44,50.27,49.2,NA,NA,NA,51.727442706193,FALSE
152.77,-26.56,"040755","COORAN","QLD",1947,2004,0.89,77,30.21,51.62,85.8446214136587,39.3858082590429,0.366299324756243,108.216134527531,FALSE
152.7,-27.67,"040816","AMBERLEY (DNRM) TM","QLD",1961,2016,0.86,18,54.13,48.16,NA,NA,NA,45.8290806203565,FALSE
152.7,-26.63,"040830","BELLBIRD CREEK TM","QLD",1959,2016,0.85,95,39.49,49.3,NA,NA,NA,97.7994694778902,FALSE
152.77,-28.2,"040832","FOREST HOME TM","QLD",1917,2016,0.86,110,69.98,86,NA,NA,NA,32.5625795523835,FALSE
152.49,-26.45,"040870","OAKWOOD","QLD",1938,2009,0.66,187,57,47.52,80.3371742863319,31.4020272198965,0.408682797119291,96.457276000039,FALSE
151.69,-27.3,"041000","ACLAND POST OFFICE","QLD",1912,1993,0.96,396,135.91,78.72,53.1400482928178,18.4911584279699,0.0175107423447958,20.4665303527689,TRUE
152,-28.04,"041001","ALLORA POST OFFICE","QLD",1883,2000,0.98,469,133.29,115.64,56.0857179705899,18.2289822713078,0.019407264092992,22.1183767826366,TRUE
151.8,-27.9,"041002","BACK PLAINS","QLD",1912,2003,0.98,450,141.83,90.16,52.2991375401352,17.1451962610089,0.0395711726649724,25.199754636486,TRUE
151.68,-27.83,"041003","BALGOWNIE WEST","QLD",1876,2003,0.73,448,149.37,93.44,54.3778719688456,16.3605191430849,0.0854828452584549,31.1985966819547,TRUE
151.45,-26.93,"041005","BELL POLICE","QLD",1910,2016,0.97,497,162.59,103.79,49.8915607012625,12.9801356500322,0.222286324985117,14.1131981526827,TRUE
150.79,-26.84,"041007","BRIGALOW POST OFFICE","QLD",1913,2015,0.78,330,228.83,80.34,59.4233462093304,19.4204884571738,0.0546296499347044,69.2375911091417,TRUE
151.49,-27.3,"041008","BOWENVILLE","QLD",1889,2015,0.8,383,155.67,101.6,52.7487262821409,19.1439997796509,-0.0213628940544308,35.3050051919925,TRUE
150.81,-28.27,"041009","BYBERA","QLD",1931,2007,0.9,350,247.3,69.3,51.0136264141156,14.7481072583581,0.163964225913463,129.291621175481,TRUE
151.87,-27.71,"041011","CAMBOOYA POST OFFICE","QLD",1887,2014,0.96,476,127.11,122.88,52.2336775148948,15.4290081788685,0.0759507248476568,10.5260934788664,TRUE
150.9,-26.68,"041012","FERNFLAT","QLD",1912,2016,0.93,333,216.23,97.65,55.7751075861523,20.2171874411163,0.162351361956789,57.0788477246559,TRUE
152.07,-28.23,"041013","CANNING DOWNS","QLD",1897,2016,0.86,456,136.47,103.2,51.1511097545094,16.3425016269464,0.0999109049995194,32.5052495676236,TRUE
151.63,-28.35,"041014","CARBEAN","QLD",1946,2016,0.99,594,181.53,70.29,52.3449838186034,16.7036740028504,0.239264859318304,71.4129231032469,TRUE
150.6,-26.74,"041017","CHINCHILLA WATER TREATMENT PLANT","QLD",1889,2016,0.97,313,246.58,124.16,54.8292066787281,17.8637427340691,0.251717451836366,86.891962220867,TRUE
151.91,-27.93,"041018","CLIFTON POST OFFICE","QLD",1893,2016,0.96,443,133.91,119.04,52.0407304412061,15.2392966071979,0.217842387794335,19.2753529756346,TRUE
151.29,-27.72,"041019","CONDAMINE PLAINS","QLD",1870,2015,0.74,370,182.24,108.04,55.4708022865689,17.0616531782734,0.0128349145463717,64.9354553262835,TRUE
151.26,-27.18,"041023","DALBY POST OFFICE","QLD",1870,1992,0.89,344,178.33,109.47,55.9572757436028,20.0032997442281,0.0237357740259596,46.6898548910432,TRUE
151.85,-27.21,"041024","DOCTORS CREEK","QLD",1906,2016,0.93,612,119.88,103.23,54.7373122743427,15.8133490181682,0.104882455432637,2.6355229622022,TRUE
151.08,-27.58,"041025","DUNMORE STATE FOREST","QLD",1940,2015,0.97,411,199.67,73.72,56.768859289851,20.5133665443305,0.0893343563451381,84.5598235037555,TRUE
151.8,-28.02,"041026","EAGLES NEST","QLD",1899,1967,0.84,420,148.33,57.96,52.9036791779634,16.1859564069153,0.163994936522851,34.0159480255998,TRUE
152.25,-28.23,"041028","EMU CREEK","QLD",1893,2001,0.96,503,119.35,104.64,49.593669464679,18.6975277393419,0.0108961736659695,15.0088612408158,TRUE
150.9,-26.6,"041029","AVINGTON","QLD",1911,1994,1,280,215.58,84,55.2645466684546,20.5411807370432,-0.0410467622483678,57.1121702591445,TRUE
152.02,-27.41,"041031","GEHAM STATE SCHOOL","QLD",1912,1974,0.73,600,105,45.99,62.5268496748763,18.367361137354,0.158452598231466,2.37033067269225,TRUE
152.17,-28.06,"041032","MYRA","QLD",1909,1994,0.99,500,121.82,85.14,51.9813504184851,16.4940442331072,0.247211548136502,18.6872588693601,TRUE
151.47,-28.4,"041034","GLENELG","QLD",1882,2016,0.83,400,198.09,112.05,50.6462807307351,15.5816147471938,0.201363336979113,86.2776576481114,TRUE
152.1,-28.1,"041035","GLENGALLAN","QLD",1886,1964,0.8,461,129.91,63.2,51.5089797777394,14.7065828962326,-0.0188351440171301,25.6853054785204,TRUE
151.85,-27.31,"041037","GOOMBUNGEE POST OFFICE","QLD",1909,2016,0.98,497,120.19,105.84,56.5563036032152,19.1706948165849,0.0514731163265487,12.9814007008485,TRUE
151.9,-27.5,"041039","GOWRIE JUNCTION","QLD",1899,1972,0.96,485,118.32,71.04,57.5050655286902,16.1838369199939,-0.0606919319360173,4.09827792829597,TRUE
151.91,-27.79,"041040","GREENMOUNT POST OFFICE","QLD",1912,2016,0.91,524,126.78,95.55,55.293628957651,16.0740868646597,0.0163482081911847,8.97538250295446,TRUE
151.73,-28.24,"041041","COOLESHA","QLD",1920,2015,0.94,544,167.86,90.24,53.2952318902018,14.9832827999359,0.118274520913388,55.742915704801,TRUE
151.88,-27.22,"041042","HADEN POST OFFICE","QLD",1926,2015,0.98,640,116.89,88.2,56.2143990778498,19.5894079596538,0.0657666168211405,2.80018883111962,FALSE
152.1,-28.21,"041044","HERMITAGE","QLD",1898,2001,0.88,475,133.11,91.52,51.7538526592676,16.3228692347568,0.0836161673579716,29.4392214012463,TRUE
152.42,-28.28,"041046","THE HEAD","QLD",1958,2015,0.97,668,105.15,56.26,69.092610046398,27.4783261944099,0.353629804821158,1.45647436914964,TRUE
151.08,-28.41,"041047","INGLEWOOD POST OFFICE","QLD",1883,2015,0.96,291,231.24,127.68,52.0088001648843,14.9408014442175,0.125407955591442,115.775481753757,TRUE
151.52,-27.2,"041049","IRVINGDALE POST OFFICE","QLD",1894,1976,0.66,396,152.55,54.78,56.7780004963238,20.536939324266,0.00638151846505832,25.7495216630526,TRUE
151.11,-26.78,"041050","JANDOWAE POST OFFICE","QLD",1898,2016,0.98,362,196.92,116.62,53.2900058269649,18.1476779462128,0.205718725955247,36.757286702647,TRUE
151.1,-26.69,"041052","JINGI JINGI","QLD",1915,2016,0.97,365,196.55,98.94,53.6603782549338,17.9186269320176,0.220459431188633,37.1688062589549,TRUE
151.59,-27.37,"041053","JONDARYAN POST OFFICE","QLD",1887,2016,0.9,382,146.4,117,51.6491315577186,18.6375288251553,0.0745347920129892,33.0285741897905,TRUE
152.3,-28.33,"041056","KILLARNEY POST OFFICE","QLD",1889,2016,0.98,507,117.62,125.44,52.311012387353,17.3790788118908,0.141526421583259,9.79880418076668,TRUE
150.74,-28.09,"041058","KINDON","QLD",1924,2013,0.97,290,246.04,87.3,49.0443769737237,17.7547198853528,0.134231260873053,128.040533544731,TRUE
150.77,-27.05,"041059","KOGAN POST OFFICE","QLD",1920,1993,0.79,340,227.62,58.46,53.2606716209233,18.459857657649,0.133033484473474,78.9182279008317,TRUE
151.59,-28.01,"041060","LEYBURN","QLD",1931,2006,0.77,366,165.79,58.52,51.6385083141427,14.9965154737597,0.178688497104703,48.8519872930617,TRUE
151.2,-27.66,"041061","KURROWAH","QLD",1915,2015,0.98,427,189.47,98.98,55.8228980740711,17.6794600148242,-0.0685067136570169,72.8787669194632,TRUE
151.33,-27.81,"041062","LAGUNA","QLD",1938,2016,0.99,380,181.11,78.21,56.7373659068835,19.330296943181,0.0120897628619623,63.8087688730926,TRUE
151.59,-28.01,"041063","LEYBURN POST OFFICE","QLD",1883,2016,0.99,412,165.79,132.66,53.661726739409,15.5960197491628,0.113660474933678,48.8519872930617,TRUE
151.08,-27.05,"041065","MACALISTER POST OFFICE","QLD",1902,1980,0.98,329,197.01,77.42,60.7001405714987,19.0261859269159,-0.00392189110903285,51.1279104654882,TRUE
152.27,-28.05,"041067","BLAKEFIELD","QLD",1913,1979,0.97,525,113.18,64.99,55.1713348052933,20.3315777971317,0.0221960546152814,8.81980133138584,TRUE
151.27,-27.87,"041069","MILLMERRAN POST OFFICE","QLD",1900,2014,0.98,407,188.78,112.7,53.4733375821269,22.2667912876435,-0.0452154970853648,71.3544773074287,TRUE
151.6,-27.48,"041072","MOUNT IRVING","QLD",1899,2016,0.97,396,147.21,114.46,52.1148978308422,16.4270974710113,0.1814172961913,33.2676309696363,TRUE
151.8,-27.35,"041074","NETHERBY","QLD",1929,1981,0.99,463,125.52,52.47,54.1403882207171,13.4166631020666,0.253483419950691,18.9062530477005,TRUE
151.9,-27.85,"041075","NOBBY TOOTH ST","QLD",1940,2014,0.88,483,130.54,66,56.553249196672,14.0771121934318,0.156874608417713,14.163686734077,TRUE
151.72,-27.45,"041077","OAKEY POST OFFICE","QLD",1899,1985,0.99,402,134.95,86.13,52.8211172749598,17.6079540500606,0.191154759701613,21.7315535401186,TRUE
151.7,-27.15,"041080","PERANGA POST OFFICE","QLD",1950,2004,0.89,450,134.9,48.95,58.4644593201453,14.850139714688,0.172620671204077,8.65261830544756,TRUE
151.63,-27.72,"041082","PITTSWORTH","QLD",1886,2016,0.97,608,149.92,127.07,53.0330074506968,16.290989617659,0.0898095941879731,32.6296667224014,TRUE
151.78,-28.07,"041083","PRATTEN","QLD",1898,2016,0.97,609,152.96,115.43,52.5837518729506,16.3024931400772,0.094718954857786,39.1638755031709,TRUE
152.39,-28.33,"041085","QUEEN MARY FALLS","QLD",1959,2016,0.99,895,108.95,57.42,71.845063008803,29.8715255653566,0.309193396179446,0.981497612507809,TRUE
151.4,-26.67,"041086","QUENDON","QLD",1949,2015,0.99,562,166.65,66.33,53.8209516788929,14.9657424741044,0.232856233644367,7.33088180524835,TRUE
151.3,-27.4,"041089","STRUTH","QLD",1890,1964,0.72,366,175.26,54,53.2182169907072,12.509140114384,0.170987157337381,56.7353453381436,TRUE
152.25,-28.29,"041098","TANNYMOREL","QLD",1916,2016,0.94,525,121.25,94.94,52.3302959466155,17.1373003416141,0.0846978767466419,14.7051175303857,TRUE
150.46,-27.28,"041099","TARA TOWNSHIP","QLD",1911,2014,0.97,311,257.46,100.88,48.1429288970432,17.2935959339834,0.141115496880702,117.27209284409,TRUE
151.93,-27.58,"041103","TOOWOOMBA","QLD",1869,2007,0.91,691,117.24,126.49,64.1814160312287,20.6837650970424,0.0791345210307527,1.51699608398035,TRUE
150.25,-28.47,"041105","UMBERCOLLIE","QLD",1909,1958,0.98,212,306.45,49,48.1588966946216,19.2592880941679,0.0920883297693864,188.347052996697,TRUE
152.08,-27.97,"041106","UPPER FOREST SPRINGS","QLD",1927,2016,0.84,566,122.34,75.6,56.9801222933147,17.2272311940228,0.00549397091125028,12.0143859403553,TRUE
152.12,-27.92,"041107","UPPER PILTON","QLD",1933,2001,0.99,549,115.9,68.31,54.1025329582949,17.252625616125,-0.0667657769827305,5.71371052845031,TRUE
150.52,-27.38,"041108","BEAU MAISON","QLD",1911,2013,0.9,330,251.93,92.7,49.9265421122402,18.2178676684633,0.142287388477721,117.621868462588,TRUE
151.81,-28.02,"041109","VICTORIA HILL","QLD",1912,2015,0.79,425,147.5,82.16,49.2677662329973,14.1004029890056,0.269231627562533,33.260160956612,TRUE
151.2,-27.83,"041110","TURALLIN","QLD",1909,2015,0.88,403,194,94.16,55.0955468877721,17.9120569644522,0.0458636520235532,76.6235724861931,TRUE
152.03,-28.22,"041111","WARWICK POST OFFICE","QLD",1865,1985,0.82,453,140.06,99.22,53.7720208275797,16.6170886744875,0.0658602896736585,36.3423934656367,TRUE
151.62,-27.21,"041115","MARAVALE","QLD",1947,2010,0.92,407,142.64,58.88,52.5122979338932,17.0978086612812,0.0612844373182556,19.0124818180345,TRUE
150.93,-26.93,"041117","WARRA POST OFFICE","QLD",1888,1991,0.97,317,213.43,100.88,56.8002787215415,18.3616047769945,0.078080654452658,58.8367182721409,TRUE
151.58,-28.19,"041118","WARRABAH","QLD",1919,2013,0.98,460,176.7,93.1,52.7304062901929,16.5991446548778,0.0758080365838032,62.7247822060249,TRUE
152.21,-28.2,"041120","YANGAN POST OFFICE","QLD",1912,2016,1,536,122.34,105,52.8909164546321,16.6961157102026,0.104823269869125,18.6437094754165,TRUE
151.83,-27.62,"041126","WESTBROOK","QLD",1890,2012,0.89,539,127.9,109.47,53.2587026510643,17.1652619229401,0.113273610115733,10.5953716968935,TRUE
151.09,-27.83,"041127","WESTERN CREEK","QLD",1889,2000,0.92,380,204.41,103.04,54.8057804061966,19.9651204991644,-0.0407832067751492,86.9645323335716,TRUE
150.48,-28.49,"041129","WOOMERA","QLD",1915,2008,0.78,222,287.03,73.32,49.6222960390385,17.1046463789821,0.121006313345061,169.353417826911,TRUE
151.38,-26.77,"041131","COORANGA NORTH","QLD",1940,2016,0.69,515,170.29,53.13,53.1314767613387,15.129013627184,0.127660573018755,10.8303486225156,TRUE
152.4,-28.31,"041134","TOP PLAINS","QLD",1952,2015,0.99,959,107.58,63.36,73.7334662428417,30.0741994528857,0.401942905593333,2.28299294677757,FALSE
150.74,-27.3,"041135","BROADACRES","QLD",1951,2004,0.96,370,229.81,51.84,54.2654208237445,23.3101642298851,0.0273025753418882,94.6078954119818,TRUE
150.65,-28.17,"041139","WYAGA STATION","QLD",1899,2012,0.51,251,257.43,58.14,47.3289066929265,14.5873751590066,0.0917535669159186,139.271494644003,TRUE
151.26,-27.19,"041140","DALBY REGIONAL COUNCIL","QLD",1959,2008,0.96,343,178.31,48,51.5733750841112,16.8421241786628,0.194343712461489,47.4657349266544,TRUE
151.17,-26.84,"041145","MARNHULL","QLD",1900,2016,0.68,348,191.86,79.56,53.2094746925758,16.3422132177144,-0.0674944778717703,32.9889396133407,TRUE
152.1,-28.15,"041154","BLINKBONNIE","QLD",1887,1934,0.94,498,131.78,45.12,47.2371598911526,12.5863834001334,0.0989031704153397,28.4337285399028,TRUE
151.37,-27.85,"041158","YANDILLA","QLD",1876,1933,0.9,372,178.74,52.2,52.5694851582558,12.0558464641414,-0.390095500275636,61.2657052022769,TRUE
152.42,-28.3,"041165","BONNIE BRAE","QLD",1913,1991,0.79,990,105.46,62.41,76.4105018106042,32.2804695792908,0.344722820400385,2.36378981068236,FALSE
151.6,-27.68,"041166","SPRINGSIDE","QLD",1959,2016,0.98,503,151.54,56.84,51.7167806687102,17.1802505493365,-0.0108120150763521,34.1138388058024,TRUE
152.28,-28.17,"041167","HELENVALE","QLD",1919,2016,0.63,549,114.91,61.74,52.3190973972063,15.4899339140368,0.384931392691705,11.8189276534417,TRUE
151.3,-26.71,"041168","ROSEVALE","QLD",1913,2015,0.56,465,177.09,57.68,48.767047050854,12.2421674995634,0.18377357904529,17.3088388380866,TRUE
151.09,-26.9,"041179","WYOBIE","QLD",1958,2013,0.85,335,198.32,47.6,52.0123420895409,15.7362660948113,-0.214172685376502,43.0481599711909,TRUE
151.57,-27.18,"041182","WHITTAKER","QLD",1958,2016,0.97,410,147.64,57.23,49.9402213267418,17.1786638397983,0.101514426576192,20.5022210993905,TRUE
151.54,-28.24,"041189","WARAHGAI","QLD",1959,2010,0.92,488,183.03,47.84,53.5470461954769,17.2275902811205,0.0600177189233021,69.3260233011596,TRUE
151.37,-27.26,"041191","VICTORY DOWNS","QLD",1958,2011,0.96,358,167.39,51.84,51.1260648087181,16.5242507354912,-0.0117590260567185,41.7675045667021,TRUE
151.8,-28.37,"041192","VALHALLA","QLD",1959,2015,0.98,705,166.02,55.86,48.7379952162237,12.7365896765454,0.367640652658747,54.8657001621283,TRUE
150.87,-27.32,"041197","KUMBARILLA LANE","QLD",1959,2009,0.99,370,217.03,50.49,50.9349103451991,18.567244741673,0.0401108026835829,85.9291751303142,TRUE
151.3,-27.15,"041198","TINGHA","QLD",1958,2015,0.93,364,174.48,53.94,50.9601665724473,16.2847073585428,-0.0219216755851022,41.5197725698108,TRUE
151.31,-27.03,"041200","TALMOI","QLD",1958,2003,0.98,381,174.57,45.08,48.7650330461467,15.1144808974081,0.284647474576343,31.908307050759,TRUE
151.71,-27.02,"041202","TALGAI","QLD",1958,2013,0.97,544,135.43,54.32,52.1409630298105,21.8787781040378,-0.00618388818176634,1.25326590322946,TRUE
151.47,-28.12,"041205","STRATHYRE","QLD",1959,2005,0.98,469,181.96,46.06,50.6277475375122,16.568041402636,0.0348889611010495,65.7323231363587,TRUE
152.34,-28.35,"041208","SPRING CREEK","QLD",1959,2016,0.99,610,114.2,57.42,62.2890520254633,22.7639076282589,0.243958508235225,6.21431754219541,TRUE
151.89,-28.48,"041209","SORRENTO","QLD",1959,2015,0.95,839,160.35,54.15,48.8732243737954,12.6542775580508,0.170968755048985,46.3602475411608,TRUE
151.68,-27.21,"041212","ROSALIE PLAINS","QLD",1954,2016,0.92,475,136.7,57.96,52.1609604641233,17.1978854296206,0.0394645725261293,14.5466192444706,TRUE
150.69,-26.81,"041215","RIVERVIEW HOPELAND","QLD",1958,2015,0.93,313,238.68,53.94,52.133566950593,17.7229236668707,-0.0714723616743234,78.5292197535694,TRUE
152.05,-28.03,"041216","RIVERSIDE","QLD",1959,2005,1,495,128.7,47,53.1896057153555,22.4388581023701,-0.152016202046038,19.2181240491816,TRUE
151.55,-27.99,"041219","REDBANK","QLD",1959,2016,1,414,168.31,58,50.5895050933268,14.4499840830604,0.114030608968338,50.7289230988365,TRUE
151.94,-28.29,"041223","THE GLEN","QLD",1959,2006,0.94,509,150.44,45.12,50.4093148186539,15.1360004049605,0.172352572729685,43.2486290491993,TRUE
152.06,-27.84,"041225","MIRRABOOKA","QLD",1959,2014,0.93,506,116.12,52.08,52.21561144779,14.4707826163986,0.0230543672290502,1.60437064211907,TRUE
151.14,-27.19,"041240","HEREWARD","QLD",1959,2016,1,340,190.19,58,54.7497138324026,19.9948033070701,0.0894799150628222,56.3160521703918,TRUE
151.63,-27.02,"041242","LITTLE RIDGE","QLD",1958,2016,0.98,532,143.27,57.82,51.2826404522753,17.619191298807,0.143860543159898,7.03320815818109,TRUE
151.4,-27.14,"041244","MOUNT LEINSTER","QLD",1958,2014,0.98,391,164.64,55.86,50.1095304110507,18.9478465070914,0.0268336009994327,33.2409033344808,TRUE
151.14,-27.05,"041248","MAR-LEE","QLD",1959,2013,0.95,346,191.09,52.25,49.5147999533001,14.8473717344382,0.118254578830603,46.1994873301993,TRUE
151.39,-28.01,"041249","EKSUN DOWNS","QLD",1959,2015,0.94,427,183.49,53.58,52.1697523538359,17.0581575113539,0.0359181059793048,65.4245740959374,TRUE
151.41,-27.79,"041250","PAMPAS","QLD",1959,2016,1,390,172.93,58,52.6870932054163,15.3822509952861,0.122182561625004,55.6514417262823,TRUE
151.82,-28.43,"041251","PALGROVE","QLD",1959,2015,0.99,765,165.88,56.43,45.9103769059641,11.7322258161693,0.249280592997345,52.6860273835586,TRUE
151.99,-27.81,"041256","NAVILLOWEEN","QLD",1959,2013,0.99,469,120.62,54.45,51.4653333124162,16.7663396593377,-0.053826048067609,4.70287814046123,TRUE
151.1,-27.23,"041257","KUPUNN","QLD",1958,2010,0.98,341,194.09,51.94,55.0642340041437,19.1997164750936,0.143425105024473,62.2470307842527,TRUE
152.13,-28.07,"041259","CLINTONVALE","QLD",1959,2015,0.91,497,125.49,51.87,54.7512426421071,15.4214813855213,0.134782389117731,21.7798203948296,TRUE
150.77,-27.12,"041261","KIA ORA","QLD",1947,2016,0.95,360,227.09,66.5,56.0556450676301,22.9032908946569,-0.0583876720841069,81.8805377210807,TRUE
151.37,-27.07,"041266","LILLINGSTONE","QLD",1959,2015,0.9,398,168.18,51.3,52.7065219911635,16.1882332006292,0.0933823204847389,30.3787792060918,TRUE
151.58,-27.82,"041270","GUNBOWER","QLD",1907,2009,0.85,408,158.15,87.55,53.0711641576865,16.430212621116,0.0713191456924027,40.3568595942269,TRUE
151.65,-27.08,"041271","GRAHAMVILLE","QLD",1958,2014,0.96,483,140.45,54.72,47.7729005339183,16.3644381525521,0.0194683294350995,7.90725322339086,TRUE
151.93,-28.15,"041275","GLENROY MASSIE","QLD",1959,2016,1,457,146.23,58,50.768380658684,16.5256765521299,0.113938294180224,36.1586526675851,TRUE
152.16,-27.93,"041276","GLENRIVE","QLD",1959,2016,0.99,622,113.36,57.42,55.1760111697931,16.8944400691812,-0.000953655580566511,6.02380469240101,FALSE
151.21,-26.77,"041277","GLENROY","QLD",1958,2016,0.98,408,186.93,57.82,52.2092735973638,15.2341044600535,-0.135567924499597,26.7894948280162,TRUE
151.85,-28.33,"041285","FAIRLEIGH","QLD",1959,2016,0.99,603,160.1,57.42,50.8690193613086,14.5579429574414,0.225031793655616,50.6440608939691,TRUE
150.87,-26.87,"041291","EHLMA PARK","QLD",1958,2015,0.98,314,220.41,56.84,55.2383018331471,15.3291322376649,-0.102754035694445,62.2564460417109,TRUE
150.98,-27.1,"041297","DAANDINE","QLD",1905,2015,0.49,331,206.44,54.39,54.3304418364867,18.8977305542831,0.164440872929967,62.4847580609555,TRUE
151.45,-27.86,"041306","TOSARI","QLD",1959,2016,0.99,399,171.69,57.42,52.2313633333365,15.872815927775,0.0744639372253486,53.8481004664419,TRUE
151.2,-26.89,"041310","KUYURA","QLD",1958,2016,0.98,377,187.8,57.82,50.597338864182,14.913449591563,0.114717136419693,32.7578553936854,TRUE
151.45,-27.76,"041314","BROOKSTEAD POST OFFICE","QLD",1958,2016,0.97,388,168.18,57.23,53.1129553044383,15.2830962563343,0.062034117439053,50.8062146220046,TRUE
151.57,-28.11,"041315","BRIGALOW PARK","QLD",1959,2016,1,457,172.87,58,46.0748098461466,13.3409456614639,0.237767818290941,57.5997525232194,TRUE
151.42,-27.07,"041317","BUNDALEER","QLD",1958,2013,0.97,395,163.24,54.32,52.9462037935903,17.1629747846191,0.0519336447517977,26.8536925992052,TRUE
151.34,-27.97,"041318","CARRAMAR","QLD",1959,2016,0.98,440,186.23,56.84,49.423766970265,14.7930939134463,-0.0842882712316926,68.0133402871235,TRUE
152.29,-28.02,"041323","MANDALA","QLD",1959,2016,0.8,586,110,46.4,59.9142047714297,19.0786546757726,0.416604497692688,6.84869749908157,TRUE
151.77,-27.77,"041327","BAIRNSDALE","QLD",1959,2013,1,478,138.67,55,50.5688881052856,16.5163797291715,0.197692206973254,20.9036647939921,TRUE
151.56,-28.21,"041344","KARARA","QLD",1968,2016,0.96,480,179.56,47.04,49.4357023557841,14.7546225193222,0.106533217566778,65.675238281279,TRUE
150.58,-27.73,"041349","MUNDAGAI","QLD",1969,2016,0.98,297,250.98,47.04,47.3996295767186,14.5518332982655,0.2511973186137,134.431871610081,TRUE
151.74,-27.4,"041359","OAKEY AERO","QLD",1970,2016,0.97,406,132.1,45.59,52.669499040175,16.6334396922353,0.136873739177246,21.5325776635971,TRUE
150.54,-28.12,"041370","YAGABURNE","QLD",1920,2016,0.5,260,265.67,48.5,51.255376577493,15.5709971213634,-0.135925457874288,147.798722271302,TRUE
151.68,-28.46,"041371","MELVA","QLD",1920,2016,0.99,699,179.97,96.03,51.7186258318734,15.1691267767988,0.149847229502204,66.543842141813,TRUE
151.42,-28.24,"041375","COLUMBA","QLD",1938,2012,0.76,400,192.94,57,50.6409349746341,15.8978399213953,0.149309467787716,78.2026370990517,TRUE
151.54,-28.34,"041377","TUMMURRAMI","QLD",1936,2016,0.75,489,189.44,60.75,46.8433206463006,16.5937643121936,0.231074808295595,76.7064226002674,TRUE
152.42,-28.13,"041380","SWANFELS UPPER","QLD",1919,1964,0.98,741,100.55,45.08,58.6295868394892,19.8113980837208,0.285753529534896,2.33525680638762,FALSE
151.33,-28.06,"041388","MURRALAH","QLD",1952,2016,0.98,500,191.17,63.7,50.726755550292,14.5176563336844,0.258904388503275,73.2572758268143,TRUE
151.39,-28.34,"041390","DUNBLAINE","QLD",1936,2003,0.69,369,201.45,46.92,46.3825333891825,9.98664516430063,0.446023498780305,87.7414375631776,TRUE
151.15,-28.36,"041391","WOODSPRING","QLD",1954,2016,0.96,300,222.49,60.48,51.9493732724965,18.0663272452739,0.151534315223605,106.946514392336,TRUE
150.45,-28.17,"041395","GLENARADALE","QLD",1958,2006,0.95,210,275.85,46.55,51.7867221885742,17.6703653429516,-0.268017960213006,157.870269752046,TRUE
150.13,-28.14,"041397","BURILDA","QLD",1959,2016,0.99,200,304.67,57.42,50.9774043303895,17.9634621639841,0.143410621157212,187.323432144644,TRUE
151.67,-27.96,"041404","ELLANGOWAN","QLD",1887,2016,0.67,403,156.25,87.1,52.7021495943638,13.1895429008915,0.125185785112021,39.2344464457797,TRUE
151.52,-28.3,"041412","DUNGORM","QLD",1926,2009,0.86,500,188.42,72.24,49.911403492691,13.9955239519382,0.213238197657984,75.2022862095435,TRUE
151.73,-27.57,"041416","AUGHAMORE","QLD",1929,1991,1,506,136.24,63,53.4764320449203,19.2431303068593,0.0233944319693072,20.4125907820961,TRUE
151.92,-28.21,"041445","LESLIE DAM","QLD",1915,2016,0.55,478,150.41,56.1,50.7706840013266,17.0028482590607,0.196946150605477,42.5604105876767,TRUE
151.49,-27.2,"041466","CLYDESDALE","QLD",1956,2005,0.91,371,155.52,45.5,46.3303371160134,27.483216054858,-0.329369466802915,28.1668850650847,TRUE
151.81,-28.1,"041473","PRATTEN CONDAMINE RIVER","QLD",1923,2016,0.99,417,152.36,93.06,52.3164397526158,16.3906062255464,-0.150024648935326,39.1192399985948,TRUE
151.28,-28.48,"041495","TERRAINE TM","QLD",1952,2016,0.79,318,218.34,51.35,NA,NA,NA,105.747708323563,TRUE
152.05,-28.22,"041503","WARWICK (SCOTS COLLEGE) TM","QLD",1933,2016,0.69,446,138.14,57.96,NA,NA,NA,34.3831712256659,TRUE
151.41,-27.74,"041504","GLEN ROYAL","QLD",1943,2016,0.96,377,171.36,71.04,55.7285619474725,15.4366088169094,0.090557870912553,53.9115338347409,TRUE
150.46,-27.78,"041554","TALINGA","QLD",1959,2011,0.93,290,263.6,49.29,45.0055316146315,10.4121273521909,0.167662685721607,146.788007589767,TRUE
150.5,-26.43,"042000","BARAKULA FOREST STN","QLD",1940,2015,0.87,331,248.49,66.12,56.1357781646635,22.1479068705172,0.0395287574293159,97.0610991172673,TRUE
150.28,-27.21,"042002","BELAH PARK","QLD",1913,2016,0.99,292,275.29,102.96,51.3798023959858,17.9520442020858,0.138518922144706,130.37461125503,TRUE
150.35,-26.67,"042005","COLUMBOOLA","QLD",1914,1980,0.96,319,270.68,64.32,54.993196906037,18.7329814056919,0.199503646049911,111.779666046832,TRUE
150.15,-26.4,"042015","MADOWLA","QLD",1912,1993,0.96,369,276.52,78.72,56.7647298929853,17.6660964422601,0.085883312315738,131.983901735055,TRUE
150.06,-27.34,"042016","HANNAFORD POST OFFICE","QLD",1927,2016,0.86,283,297.16,77.4,51.601777301226,14.9367350217865,0.278945009802726,156.102949748466,TRUE
150.15,-26.45,"042020","LANCEWOOD","QLD",1922,1967,0.98,346,279.27,45.08,60.2133689052928,20.7363991366943,0.0727706889559855,131.927518446887,TRUE
150.18,-26.66,"042023","MILES POST OFFICE","QLD",1885,2016,0.99,302,287.49,130.68,55.8145533290198,19.0910004808404,0.0478331906780824,128.699821952332,TRUE
150.18,-26.3,"042033","SHELBOURNE","QLD",1958,2011,0.99,379,268.61,53.46,52.6512929101567,19.1608238148114,0.0524986617677499,129.103297425574,TRUE
150.14,-26.93,"042048","CONDAMINE","QLD",1937,2016,0.92,287,291.14,73.6,56.3880174030259,22.0971868798745,0.107977006807296,134.527690923284,TRUE
150.84,-26.16,"042075","BAWNDUGGIE","QLD",1947,2015,0.86,367,203.64,59.34,57.724224038447,16.8242318087051,0.332457895519741,63.320175164802,TRUE
150.47,-26.92,"042078","HAREWOOD","QLD",1937,2016,0.96,313,258.78,76.8,52.09025686773,17.0952256767874,0.184112094583324,102.157342394324,TRUE
150.18,-27.92,"042085","ULUPNA","QLD",1936,1987,0.99,257,293.73,51.48,50.9670938745524,14.9358910115331,0.0479529668047201,176.455443231745,TRUE
150.41,-27.13,"042086","WOODLEA","QLD",1939,2015,0.99,341,262.66,76.23,51.5367082759367,15.4679840103873,0.226016770238146,115.000827181434,TRUE
150.51,-26.73,"042089","SOMERSET","QLD",1911,2000,0.86,330,255.37,77.4,59.1571010349163,21.9184427169173,0.104175411852659,95.8226785855034,TRUE
152.35,-28.46,"056022","LEGUME (NEW KOREELAH)","NSW",1903,2016,0.99,385,116.37,112.86,58.0460298323392,19.7260286896119,0.068755760585173,5.04066700349059,TRUE
152.42,-28.39,"056023","OLD KOREELAH (MCPHERSON)","NSW",1912,2016,0.98,420,107.6,102.9,58.8933021825344,21.4330593157632,0.226175516160972,2.73281756874106,FALSE
152.1,-28.48,"056040","CULLENDORE (ASHGLEN)","NSW",1949,2011,0.87,820,140.45,54.81,61.359062367451,18.8546399488151,0.128127028192813,26.2510328167114,TRUE
152.55,-28.47,"057020","URBENVILLE OLD POST OFFICE","NSW",1935,2012,0.98,370,98.32,76.44,66.6920053228643,24.2308468804581,0.178291118191576,6.58403307626036,FALSE
152.61,-28.39,"057024","WOODENBONG (UNUMGAR ST)","NSW",1933,2015,0.97,395,89.75,80.51,67.5138495636041,27.0849809706142,0.108383476234551,14.4335750181375,FALSE
152.5,-28.28,"057026","OLD KOREELAH (WHITE SWAMP (EDENDALE 2))","NSW",1894,2016,0.93,565,97.36,114.39,79.0215506360126,32.888844959776,0.297952520720322,6.8372779710904,FALSE
153.17,-28.4,"058005","BRAYS CREEK (MISTY MOUNTAIN)","NSW",1950,2016,0.96,130,39.65,64.32,109.560974754484,53.0381137041721,0.102853798231504,67.4413254370534,FALSE
153.28,-28.31,"058011","CHILLINGHAM","NSW",1950,2016,0.93,35,27.44,62.31,132.263356671748,65.0363215771155,-0.0309787326054575,79.6508075423859,FALSE
153.43,-28.32,"058013","CONDONG SUGAR MILL","NSW",1887,1972,0.99,5,15.19,85.14,118.765865666347,55.6201693909778,0.0497563523314237,93.8816431072505,FALSE
153.55,-28.3,"058017","CUDGEN PLANTATION","NSW",1885,1959,0.93,18,4.1,69.75,112.286270671569,36.0644620342421,-0.00415067049405452,105.849267754864,FALSE
153.37,-28.29,"058020","MURWILLUMBAH (DUNGAY (TALESWOOD))","NSW",1950,2016,0.92,20,19.27,61.64,133.484164439855,61.5984526384961,0.0666388426543432,88.7434991374964,FALSE
152.83,-28.44,"058026","GREVILLIA (SUMMERLAND WAY)","NSW",1952,2000,0.93,140,72.02,45.57,67.1029589379662,31.0996576782765,0.0437591049733744,33.9016209745871,FALSE
153.22,-28.31,"058036","CHILLINGHAM (LIMPINWOOD)","NSW",1928,2016,0.89,96,31.89,79.21,136.854308064797,71.6339147050359,0.0354770993085149,73.9109975975419,FALSE
153.4,-28.32,"058042","MURWILLUMBAH POST OFFICE","NSW",1890,1973,0.94,6,17.96,78.96,126.121771062768,50.0580445213351,0.122538983043855,90.9843429513487,FALSE
153.22,-28.34,"058057","TYALGUM (WANUNGARA VIEW)","NSW",1950,2009,0.78,120,34.01,46.8,126.159147442526,59.27423525597,0.050894876848354,73.2308472694837,FALSE
153.38,-28.24,"058067","TOMEWIN (BORDER GATE)","NSW",1913,2007,1,330,15.04,95,143.578264932758,66.8507004311967,0.120750815115366,91.042003423185,FALSE
153.17,-28.37,"058109","TYALGUM (KERRS LANE)","NSW",1965,2016,0.87,91,39.9,45.24,112.990808629169,55.2308912736199,0.129702393078835,67.8498978045363,FALSE
153.09,-28.47,"058113","GREEN PIGEON (MORNING VIEW)","NSW",1965,2016,0.92,210,47.69,47.84,118.881770658478,57.3751414595713,-0.00396152741028121,59.3003107119363,FALSE
153.26,-28.47,"058129","KUNGHUR (THE JUNCTION)","NSW",1966,2016,0.89,61,31.21,45.39,97.3104558562755,49.1534412559522,0.206095219378962,75.9334469293739,FALSE
152.98,-28.41,"058141","LOADSTONE (HIGH VIEW)","NSW",1969,2016,0.94,160,57.61,45.12,76.7062831954098,29.6616826629659,0.253985439093964,48.8219054851352,FALSE
153.33,-28.41,"058167","UKI (TWEED RIVER)","NSW",1951,2016,0.89,30,23.94,58.74,NA,NA,NA,82.9643853452013,FALSE
153.4,-28.33,"058186","MURWILLUMBAH (TWEED RIVER)","NSW",1928,2016,0.93,7,18.33,82.77,NA,NA,NA,90.79935318089,FALSE
